[{
  "_id": {
    "$oid": "690a4fba4bea8898cc3d9669"
  },
  "nombre": "GUAYABITO",
  "latitud": 6.540388889,
  "longitud": -75.14675,
  "municipio_id": {
    "$oid": "690a4fc24bea8898cc3d96a4"
  },
  "municipio_nombre": "SANTO DOMINGO"
},
{
  "_id": {
    "$oid": "690a4fba4bea8898cc3d966a"
  },
  "nombre": "ANGOSTURA",
  "latitud": 6.900555556,
  "longitud": -75.326019444,
  "municipio_id": {
    "$oid": "690a4fc24bea8898cc3d96b5"
  },
  "municipio_nombre": "ANGOSTURA"
},
{
  "_id": {
    "$oid": "690a4fba4bea8898cc3d966b"
  },
  "nombre": "CAÑASGORDAS",
  "latitud": 6.758027778,
  "longitud": -76.02966667,
  "municipio_id": {
    "$oid": "690a4fc24bea8898cc3d96a7"
  },
  "municipio_nombre": "CAÑASGORDAS"
},
{
  "_id": {
    "$oid": "690a4fba4bea8898cc3d966c"
  },
  "nombre": "VEGACHI",
  "latitud": 6.774111111,
  "longitud": -74.79652778,
  "municipio_id": {
    "$oid": "690a4fc24bea8898cc3d96ae"
  },
  "municipio_nombre": "VEGACHÍ"
},
{
  "_id": {
    "$oid": "690a4fba4bea8898cc3d966d"
  },
  "nombre": "MACEO",
  "latitud": 6.571638889,
  "longitud": -74.79472222,
  "municipio_id": {
    "$oid": "690a4fc24bea8898cc3d9695"
  },
  "municipio_nombre": "YOLOMBÓ"
},
{
  "_id": {
    "$oid": "690a4fba4bea8898cc3d966e"
  },
  "nombre": "AEROPUERTO OTU",
  "latitud": 7.01175,
  "longitud": -74.71630556,
  "municipio_id": {
    "$oid": "690a4fc24bea8898cc3d9697"
  },
  "municipio_nombre": "REMEDIOS"
},
{
  "_id": {
    "$oid": "690a4fba4bea8898cc3d966f"
  },
  "nombre": "LA ESPERANZA RADIO",
  "latitud": 8.03,
  "longitud": -74.79,
  "municipio_id": {
    "$oid": "690a4fc24bea8898cc3d96a0"
  },
  "municipio_nombre": "NECHÍ"
},
{
  "_id": {
    "$oid": "690a4fba4bea8898cc3d9670"
  },
  "nombre": "PISTA INDIRA",
  "latitud": 7.94075,
  "longitud": -76.69616667,
  "municipio_id": {
    "$oid": "690a4fc24bea8898cc3d96a5"
  },
  "municipio_nombre": "TURBO"
},
{
  "_id": {
    "$oid": "690a4fba4bea8898cc3d9671"
  },
  "nombre": "CAMPO ALEGRE",
  "latitud": 7.026813889,
  "longitud": -76.252825,
  "municipio_id": {
    "$oid": "690a4fc24bea8898cc3d96a3"
  },
  "municipio_nombre": "DABEIBA"
},
{
  "_id": {
    "$oid": "690a4fba4bea8898cc3d9672"
  },
  "nombre": "MESOPOTAMIA",
  "latitud": 5.886361111,
  "longitud": -75.31863889,
  "municipio_id": {
    "$oid": "690a4fc24bea8898cc3d96b2"
  },
  "municipio_nombre": "LA UNIÓN"
},
{
  "_id": {
    "$oid": "690a4fba4bea8898cc3d9673"
  },
  "nombre": "EL JARDIN CUENCA ALTA RIO RISARALDA",
  "latitud": 5.593375,
  "longitud": -75.796397778,
  "municipio_id": {
    "$oid": "690a4fc24bea8898cc3d969f"
  },
  "municipio_nombre": "JARDÍN"
},
{
  "_id": {
    "$oid": "690a4fba4bea8898cc3d9674"
  },
  "nombre": "CORRIENTES",
  "latitud": 6.311944444,
  "longitud": -75.25355556,
  "municipio_id": {
    "$oid": "690a4fc24bea8898cc3d96b7"
  },
  "municipio_nombre": "SAN VICENTE"
},
{
  "_id": {
    "$oid": "690a4fba4bea8898cc3d9675"
  },
  "nombre": "ACUEDUCTO ARMENIA",
  "latitud": 6.161666667,
  "longitud": -75.775805556,
  "municipio_id": {
    "$oid": "690a4fc24bea8898cc3d9699"
  },
  "municipio_nombre": "ARMENIA"
},
{
  "_id": {
    "$oid": "690a4fba4bea8898cc3d9676"
  },
  "nombre": "RETIRO",
  "latitud": 6.08211,
  "longitud": -75.56640167,
  "municipio_id": {
    "$oid": "690a4fc24bea8898cc3d969a"
  },
  "municipio_nombre": "RETIRO"
},
{
  "_id": {
    "$oid": "690a4fba4bea8898cc3d9677"
  },
  "nombre": "SENA - EL BAGRE",
  "latitud": 7.584666667,
  "longitud": -74.800694444,
  "municipio_id": {
    "$oid": "690a4fc24bea8898cc3d96b1"
  },
  "municipio_nombre": "EL BAGRE"
},
{
  "_id": {
    "$oid": "690a4fba4bea8898cc3d9678"
  },
  "nombre": "AEROPUERTO J.M. CORDOVA",
  "latitud": 6.1686111,
  "longitud": -75.426111111,
  "municipio_id": {
    "$oid": "690a4fc24bea8898cc3d969c"
  },
  "municipio_nombre": "RIONEGRO"
},
{
  "_id": {
    "$oid": "690a4fba4bea8898cc3d9679"
  },
  "nombre": "LA SELVA",
  "latitud": 6.131916667,
  "longitud": -75.41455556,
  "municipio_id": {
    "$oid": "690a4fc24bea8898cc3d969c"
  },
  "municipio_nombre": "RIONEGRO"
},
{
  "_id": {
    "$oid": "690a4fba4bea8898cc3d967a"
  },
  "nombre": "UFRANÁ",
  "latitud": 6.085388889,
  "longitud": -75.811972222,
  "municipio_id": {
    "$oid": "690a4fc24bea8898cc3d96af"
  },
  "municipio_nombre": "TITIRIBÍ"
},
{
  "_id": {
    "$oid": "690a4fba4bea8898cc3d967b"
  },
  "nombre": "LA SALADA",
  "latitud": 6.048361111,
  "longitud": -75.62466667,
  "municipio_id": {
    "$oid": "690a4fc24bea8898cc3d969e"
  },
  "municipio_nombre": "CALDAS"
},
{
  "_id": {
    "$oid": "690a4fba4bea8898cc3d967c"
  },
  "nombre": "SANTA ISABEL VALDIVIA",
  "latitud": 7.157222222,
  "longitud": -75.442275,
  "municipio_id": {
    "$oid": "690a4fc24bea8898cc3d96ad"
  },
  "municipio_nombre": "VALDIVIA"
},
{
  "_id": {
    "$oid": "690a4fba4bea8898cc3d967d"
  },
  "nombre": "ALTO DE LA CRUZ",
  "latitud": 6.91,
  "longitud": -75.078888889,
  "municipio_id": {
    "$oid": "690a4fc24bea8898cc3d96b4"
  },
  "municipio_nombre": "AMALFI"
},
{
  "_id": {
    "$oid": "690a4fba4bea8898cc3d967e"
  },
  "nombre": "AEROPUERTO OLAYA HERRERA",
  "latitud": 6.2246389,
  "longitud": -75.5882,
  "municipio_id": {
    "$oid": "690a4fc24bea8898cc3d96ac"
  },
  "municipio_nombre": "MEDELLÍN"
},
{
  "_id": {
    "$oid": "690a4fba4bea8898cc3d967f"
  },
  "nombre": "LA PALMA DE COCO",
  "latitud": 7.236111111,
  "longitud": -74.80794444,
  "municipio_id": {
    "$oid": "690a4fc24bea8898cc3d96a1"
  },
  "municipio_nombre": "SEGOVIA"
},
{
  "_id": {
    "$oid": "690a4fba4bea8898cc3d9680"
  },
  "nombre": "SAN CARLOS",
  "latitud": 6.157666667,
  "longitud": -75.03891667,
  "municipio_id": {
    "$oid": "690a4fc24bea8898cc3d96b6"
  },
  "municipio_nombre": "SAN CARLOS"
},
{
  "_id": {
    "$oid": "690a4fba4bea8898cc3d9681"
  },
  "nombre": "BOQUERON DE TOYO",
  "latitud": 6.699444444,
  "longitud": -75.9775,
  "municipio_id": {
    "$oid": "690a4fc24bea8898cc3d96ab"
  },
  "municipio_nombre": "GIRALDO"
},
{
  "_id": {
    "$oid": "690a4fba4bea8898cc3d9682"
  },
  "nombre": "HACIENDA COTOVE",
  "latitud": 6.533916667,
  "longitud": -75.82733333,
  "municipio_id": {
    "$oid": "690a4fc24bea8898cc3d96b0"
  },
  "municipio_nombre": "SANTA FE DE ANTIOQUIA"
},
{
  "_id": {
    "$oid": "690a4fba4bea8898cc3d9683"
  },
  "nombre": "SONSON",
  "latitud": 5.71525,
  "longitud": -75.2945,
  "municipio_id": {
    "$oid": "690a4fc24bea8898cc3d9698"
  },
  "municipio_nombre": "SONSÓN"
},
{
  "_id": {
    "$oid": "690a4fba4bea8898cc3d9684"
  },
  "nombre": "ANORI",
  "latitud": 7.0719,
  "longitud": -75.1505,
  "municipio_id": {
    "$oid": "690a4fc24bea8898cc3d969d"
  },
  "municipio_nombre": "ANORÍ"
},
{
  "_id": {
    "$oid": "690a4fba4bea8898cc3d9685"
  },
  "nombre": "TURBO",
  "latitud": 8.091805556,
  "longitud": -76.71633333,
  "municipio_id": {
    "$oid": "690a4fc24bea8898cc3d96a5"
  },
  "municipio_nombre": "TURBO"
},
{
  "_id": {
    "$oid": "690a4fba4bea8898cc3d9686"
  },
  "nombre": "MUSINGA",
  "latitud": 6.777972222,
  "longitud": -76.20333333,
  "municipio_id": {
    "$oid": "690a4fc24bea8898cc3d969b"
  },
  "municipio_nombre": "FRONTINO"
},
{
  "_id": {
    "$oid": "690a4fba4bea8898cc3d9687"
  },
  "nombre": "ABRIAQUI",
  "latitud": 6.6363,
  "longitud": -76.070733333,
  "municipio_id": {
    "$oid": "690a4fc24bea8898cc3d96a8"
  },
  "municipio_nombre": "ABRIAQUÍ"
},
{
  "_id": {
    "$oid": "690a4fba4bea8898cc3d9688"
  },
  "nombre": "TULENAPA",
  "latitud": 7.77,
  "longitud": -76.67,
  "municipio_id": {
    "$oid": "690a4fc24bea8898cc3d96aa"
  },
  "municipio_nombre": "CAREPA"
},
{
  "_id": {
    "$oid": "690a4fba4bea8898cc3d9689"
  },
  "nombre": "LAS BRISAS",
  "latitud": 7.158805556,
  "longitud": -74.82183333,
  "municipio_id": {
    "$oid": "690a4fc24bea8898cc3d96a1"
  },
  "municipio_nombre": "SEGOVIA"
},
{
  "_id": {
    "$oid": "690a4fba4bea8898cc3d968a"
  },
  "nombre": "EL PLAN",
  "latitud": 5.924716667,
  "longitud": -75.667316667,
  "municipio_id": {
    "$oid": "690a4fc24bea8898cc3d96a6"
  },
  "municipio_nombre": "FREDONIA"
},
{
  "_id": {
    "$oid": "690a4fba4bea8898cc3d968b"
  },
  "nombre": "METROMEDELLIN",
  "latitud": 6.32975,
  "longitud": -75.55211111,
  "municipio_id": {
    "$oid": "690a4fc24bea8898cc3d96a9"
  },
  "municipio_nombre": "BELLO"
},
{
  "_id": {
    "$oid": "690a4fba4bea8898cc3d968c"
  },
  "nombre": "HACIENDA TUNEZ",
  "latitud": 5.80025,
  "longitud": -75.65097222,
  "municipio_id": {
    "$oid": "690a4fc24bea8898cc3d96a6"
  },
  "municipio_nombre": "FREDONIA"
},
{
  "_id": {
    "$oid": "690a4fba4bea8898cc3d968d"
  },
  "nombre": "ARAGON",
  "latitud": 6.78,
  "longitud": -75.56,
  "municipio_id": {
    "$oid": "690a4fc24bea8898cc3d9696"
  },
  "municipio_nombre": "SANTA ROSA DE OSOS"
},
{
  "_id": {
    "$oid": "690a4fba4bea8898cc3d968e"
  },
  "nombre": "SANTA ELENA",
  "latitud": 6.196888889,
  "longitud": -75.51675,
  "municipio_id": {
    "$oid": "690a4fc24bea8898cc3d96ac"
  },
  "municipio_nombre": "MEDELLÍN"
},
{
  "_id": {
    "$oid": "690a4fba4bea8898cc3d968f"
  },
  "nombre": "GRANJA EXPERIMENTAL EL NUS",
  "latitud": 6.483583333,
  "longitud": -74.83669444,
  "municipio_id": {
    "$oid": "690a4fc24bea8898cc3d96b8"
  },
  "municipio_nombre": "SAN ROQUE"
},
{
  "_id": {
    "$oid": "690a4fba4bea8898cc3d9690"
  },
  "nombre": "ITUANGO",
  "latitud": 7.161433333,
  "longitud": -75.762886111,
  "municipio_id": {
    "$oid": "690a4fc24bea8898cc3d96b3"
  },
  "municipio_nombre": "ITUANGO"
},
{
  "_id": {
    "$oid": "690a4fba4bea8898cc3d9691"
  },
  "nombre": "NORMAL SANTA TERESA",
  "latitud": 6.763333333,
  "longitud": -76.13361111,
  "municipio_id": {
    "$oid": "690a4fc24bea8898cc3d969b"
  },
  "municipio_nombre": "FRONTINO"
},
{
  "_id": {
    "$oid": "690a4fba4bea8898cc3d9692"
  },
  "nombre": "AMALFI",
  "latitud": 6.905555556,
  "longitud": -75.07722222,
  "municipio_id": {
    "$oid": "690a4fc24bea8898cc3d96b4"
  },
  "municipio_nombre": "AMALFI"
},
{
  "_id": {
    "$oid": "690a4fba4bea8898cc3d9693"
  },
  "nombre": "SANTA BARBARA",
  "latitud": 5.859583333,
  "longitud": -75.55627778,
  "municipio_id": {
    "$oid": "690a4fc24bea8898cc3d96a2"
  },
  "municipio_nombre": "SANTA BÁRBARA"
}]